{
    "data": [
        {
            "id": 1,
            "title": "Next Cinema",
            "address": "138 Wuckert Junctions Suite 772\nEast Nicole, KY 78909",
            "logo": null,
            "reference_point": "2029 Ned Extension Suite 052\nWest Norbertomouth, WI 26549-9474",
            "longitude": "69.245179",
            "latitude": "41.298835",
            "phone": "+1-225-506-0467"
        },
        {
            "id": 2,
            "title": "Salom Cinema",
            "address": "824 Gunner Port Suite 032\nEast Kaylibury, AZ 26033-4707",
            "logo": null,
            "reference_point": "418 Eichmann Park\nHahnborough, RI 22443-9245",
            "longitude": "69.341107",
            "latitude": "41.327717",
            "phone": "775.923.0343"
        },
        {
            "id": 3,
            "title": "Parus Cinema",
            "address": "98911 Kuvalis Plaza Suite 820\nSouth Guido, WY 91519-3456",
            "logo": null,
            "reference_point": "3388 Pacocha Divide Suite 452\nPort Jovanmouth, MI 51969",
            "longitude": "69.208809",
            "latitude": "41.291978",
            "phone": "1-402-301-5921"
        },
        {
            "id": 4,
            "title": "Riviera",
            "address": "8995 Reinger Ville\nEast Ellsworth, CT 76076-7714",
            "logo": null,
            "reference_point": "5886 Heathcote Crossing Apt. 275\nSouth Abbeyport, NY 89001",
            "longitude": "69.252237",
            "latitude": "41.339257",
            "phone": "763-880-9073"
        }
    ]
}
